City_ID,City,Lat,Lng,Max Temp,Humidity,Cloudiness,Wind Speed,Country,Date
0,port-aux-francais,-49.35,70.2167,4.13,64,99,9.5,TF,1683511630
1,iskateley,67.6803,53.1512,-6.59,94,37,2.95,RU,1683511631
2,udachny,66.4167,112.4,-5.86,44,19,3.22,RU,1683511632
3,bredasdorp,-34.5322,20.0403,12.29,92,28,1.93,ZA,1683511632
4,bodo,67.28,14.405,7.19,88,100,7.2,NO,1683511633
5,fale old settlement,-9.3852,-171.2468,29.14,75,33,4.26,TK,1683511473
6,puerto natales,-51.7236,-72.4875,5.33,87,100,1.45,CL,1683511389
7,nyachera,-0.9,30.4167,15.39,93,21,0.61,UG,1683511634
8,beyla,8.6833,-8.6333,21.32,78,68,1.02,GN,1683511634
9,adamstown,-25.066,-130.1015,21.49,60,100,10.09,PN,1683511388
10,yellowknife,62.456,-114.3525,18.29,27,0,6.17,CA,1683511252
11,hami,42.8,93.45,14.1,22,53,2.98,CN,1683511636
12,kokopo,-4.352,152.2633,29.86,69,100,2.59,PG,1683511636
13,ribeira grande,38.5167,-28.7,17.65,98,100,4.02,PT,1683511425
14,badger,64.8,-147.5333,7.85,85,100,1.64,US,1683511433
15,iqaluit,63.7506,-68.5145,-5.15,68,40,4.12,CA,1683511380
16,lebu,-37.6167,-73.65,9.56,82,0,5.78,CL,1683511531
17,marsh harbour,26.5412,-77.0636,22.51,63,0,8.55,BS,1683511520
18,hastings,50.8552,0.5729,11.4,48,100,4.05,GB,1683511639
19,edinburgh of the seven seas,-37.0676,-12.3116,14.28,63,86,1.38,SH,1683511393
20,najran,17.4924,44.1277,24.44,24,47,0.24,SA,1683511640
21,el calafate,-50.3408,-72.2768,5.85,72,98,1.45,AR,1683511640
22,hawaiian paradise park,19.5933,-154.9731,25.02,80,94,0.45,US,1683511387
23,chonchi,-42.6128,-73.8092,7.84,95,35,0.73,CL,1683511391
24,serhetabat,35.2799,62.3438,13.9,55,0,1.2,TM,1683511641
25,mersa matruh,31.3525,27.2453,17.06,77,0,4.01,EG,1683511643
26,bethel,41.3712,-73.414,17.64,74,100,1.69,US,1683511407
27,aban,56.67,96.06,15.67,38,8,2.83,RU,1683511644
28,west island,-12.1568,96.8225,28.99,84,40,2.06,CC,1683511398
29,gamba,-2.65,10.0,25.56,92,100,1.88,GA,1683511497
30,erenhot,43.6475,111.9767,16.32,16,96,1.5,CN,1683511645
31,pambujan,12.5642,124.9276,31.16,61,20,2.41,PH,1683511646
32,wailua homesteads,22.0669,-159.378,27.24,68,72,3.13,US,1683511386
33,port elizabeth,-33.918,25.5701,19.16,80,75,4.12,ZA,1683511419
34,bilibino,68.0546,166.4372,-2.51,75,18,1.27,RU,1683511416
35,grytviken,-54.2811,-36.5092,1.11,98,92,4.16,GS,1683511395
36,stanley,54.868,-1.6985,10.44,91,0,0.51,GB,1683511404
37,altay,47.8667,88.1167,7.24,69,100,2.38,CN,1683511649
38,olonkinbyen,70.9221,-8.7187,1.48,100,100,3.76,SJ,1683511446
39,waitangi,-43.9535,-176.5597,15.46,90,100,3.13,NZ,1683511650
40,goundam,16.4145,-3.6708,32.85,26,100,1.82,ML,1683511650
41,margaret river,-33.95,115.0667,18.63,47,99,7.44,AU,1683511408
42,anadyr,64.75,177.4833,0.28,74,20,8.94,RU,1683511277
43,longyearbyen,78.2186,15.6401,-2.09,86,75,2.57,SJ,1683511399
44,korla,41.7597,86.1469,11.49,36,100,2.43,CN,1683511652
45,yigo village,13.5361,144.8886,30.62,70,40,6.69,GU,1683511652
46,katsuren-haebaru,26.3369,127.8719,23.01,83,40,7.2,JP,1683511653
47,auki,-8.7676,160.7034,29.53,75,98,1.12,SB,1683511653
48,jieshi,22.8134,115.8257,23.08,83,100,4.09,CN,1683511450
49,puerto ayora,-0.7393,-90.3518,26.42,95,61,3.69,EC,1683511444
50,ushuaia,-54.8,-68.3,6.81,81,20,1.54,AR,1683511397
51,tual,-5.6667,132.75,28.74,76,98,5.83,ID,1683511640
52,roma,43.2128,-75.4557,12.99,90,100,2.57,US,1683511438
53,letterkenny,54.95,-7.7333,12.86,98,100,3.67,IE,1683511656
54,namibe,-15.1961,12.1522,23.88,62,46,2.06,AO,1683511657
55,port mathurin,-19.6833,63.4167,25.75,71,10,11.09,MU,1683511474
56,codrington,-38.2667,141.9667,13.79,71,74,7.24,AU,1683511458
57,chernomorskoye,45.5039,32.6997,11.14,81,73,6.09,UA,1683511658
58,papatowai,-46.5619,169.4708,15.6,74,100,1.22,NZ,1683511422
59,rugby,52.3709,-1.2642,11.25,90,100,3.01,GB,1683511659
60,trevelin,-43.0858,-71.4639,5.51,85,1,1.74,AR,1683511660
61,lichinga,-13.3128,35.2406,15.05,82,20,1.54,MZ,1683511660
62,pacific grove,36.6177,-121.9166,16.23,71,0,4.63,US,1683511204
63,fairmount,43.0473,-76.2385,12.63,92,100,1.54,US,1683511661
64,barah,13.7,30.3667,26.98,13,46,3.89,SD,1683511661
65,mahina,-17.5065,-149.489,29.87,70,40,5.14,PF,1683511662
66,lihue,21.9789,-159.3672,27.58,65,20,7.72,US,1683511482
67,mocimboa,-11.3167,40.35,21.86,90,8,3.34,MZ,1683511663
68,scottburgh,-30.2867,30.7532,17.8,89,100,2.86,ZA,1683511663
69,tazovsky,67.4667,78.7,-4.89,95,100,11.4,RU,1683511418
70,yuzhno-kurilsk,44.0306,145.8556,1.67,96,100,3.44,RU,1683511465
71,linxia chengguanzhen,35.6003,103.2064,9.25,73,100,1.79,CN,1683511665
72,vadso,70.0744,29.7487,3.49,87,100,6.17,NO,1683511398
73,sehwan,26.4279,67.863,31.43,27,0,2.96,PK,1683511666
74,saldanha,-33.0117,17.9442,15.63,88,65,2.98,ZA,1683511666
75,carnarvon,-24.8667,113.6333,26.34,34,0,6.26,AU,1683511468
76,thompson,55.7435,-97.8558,18.09,32,20,2.57,CA,1683511251
77,saipan,15.1355,145.701,29.25,100,13,5.36,MP,1683511384
78,blackmans bay,-43.0167,147.3167,13.07,70,96,3.39,AU,1683511441
79,vorgashor,67.5833,63.95,-9.76,90,100,9.21,RU,1683511443
80,albany,42.6001,-73.9662,15.23,78,100,2.65,US,1683511358
81,invercargill,-46.4,168.35,15.28,77,100,0.55,NZ,1683511404
82,enewetak,11.3474,162.3373,27.46,78,100,7.74,MH,1683511386
83,olyokminsk,60.3736,120.4264,2.18,50,78,3.8,RU,1683511671
84,glace bay,46.1969,-59.957,7.54,76,20,6.17,CA,1683511469
85,monticello,45.3055,-93.7941,20.53,60,20,2.06,US,1683511442
86,rongelap,11.1635,166.8941,27.41,80,65,7.91,MH,1683511672
87,hammerfest,70.6634,23.6821,2.25,100,100,0.0,NO,1683511673
88,malango,-2.9627,119.9001,24.5,79,91,0.55,ID,1683511546
89,tura,25.5198,90.2201,29.7,36,0,2.78,IN,1683511448
90,kwali,8.8672,7.005,24.91,77,88,1.3,NG,1683511674
91,czaplinek,53.5578,16.2333,3.75,91,3,1.61,PL,1683511674
92,uturoa,-16.7333,-151.4333,27.87,75,100,3.74,PF,1683511474
93,albardon,-31.4372,-68.5256,18.75,33,13,4.5,AR,1683511675
94,chivhu,-19.0211,30.8922,10.11,68,0,1.94,ZW,1683511675
95,smithfield,41.922,-71.5495,18.65,51,20,3.6,US,1683511481
96,utrik,11.2278,169.8474,27.03,83,99,8.42,MH,1683511385
97,new norfolk,-42.7826,147.0587,13.73,69,100,0.89,AU,1683511481
98,isafjordur,66.0755,-23.124,6.2,94,100,1.96,IS,1683511404
99,aasiaat,68.7098,-52.8699,-2.62,83,95,4.22,GL,1683511494
100,hirara,24.8,125.2833,22.92,78,75,6.69,JP,1683511502
101,tonghae,37.5439,129.1069,15.18,42,12,1.92,KR,1683511452
102,kodiak,57.79,-152.4072,5.73,75,100,2.57,US,1683511472
103,atafu village,-8.5421,-172.5159,29.08,75,8,4.23,TK,1683511396
104,martapura,-3.4167,114.85,28.05,89,40,2.06,ID,1683511679
105,impfondo,1.6381,18.0667,19.7,96,97,0.84,CG,1683511680
106,fortuna,40.5982,-124.1573,14.81,67,100,2.68,US,1683511680
107,hermanus,-34.4187,19.2345,13.22,82,6,2.53,ZA,1683511519
108,east london,-33.0153,27.9116,19.03,71,100,2.78,ZA,1683511601
109,al bayda',32.7627,21.7551,12.76,60,0,3.06,LY,1683511681
110,rockport,28.0206,-97.0544,26.11,91,0,7.2,US,1683511472
111,fort bragg,35.139,-79.006,22.91,65,0,5.14,US,1683511562
112,inarajan village,13.2736,144.7484,31.54,84,16,5.02,GU,1683511682
113,saint-joseph,-21.3667,55.6167,22.48,82,100,4.57,RE,1683511464
114,sola,-13.8833,167.55,27.46,77,29,4.11,VU,1683511520
115,yuzhne,46.6221,31.1013,8.64,68,81,5.26,UA,1683511684
116,pyt-yakh,60.7499,72.8582,7.69,60,82,7.02,RU,1683511684
117,umluj,25.0213,37.2685,23.62,44,0,5.38,SA,1683511685
118,mandal,25.45,74.5667,29.65,24,29,3.37,IN,1683511685
119,yangon,16.8053,96.1561,28.98,74,100,1.03,MM,1683511535
120,yaren,-0.5472,166.916,28.8,76,11,2.95,NR,1683511686
121,arteche,12.2645,125.4048,30.26,64,8,3.06,PH,1683511470
122,santa ana de yacuma,-13.75,-65.4333,22.03,94,91,0.9,BO,1683511687
123,baiyin,36.5583,104.2081,11.28,59,100,2.56,CN,1683511688
124,namdrik,5.5994,168.1028,28.35,80,100,6.1,MH,1683511614
125,hamilton,39.1834,-84.5333,19.76,86,99,1.66,US,1683511281
126,montrose,38.4166,-108.2673,11.67,52,90,1.99,US,1683511209
127,campbellton,48.0075,-66.6727,8.87,62,94,1.6,CA,1683511612
128,petropavlovsk-kamchatsky,53.0452,158.6483,8.33,46,75,6.0,RU,1683511443
129,sao joao da barra,-21.6403,-41.0511,23.06,85,5,0.62,BR,1683511690
130,katpur,21.05,71.7833,29.09,54,0,2.62,IN,1683511691
131,college,64.8569,-147.8028,7.89,54,100,1.37,US,1683511381
132,crucecita,-28.95,-58.9833,14.43,92,0,0.41,AR,1683511448
133,namtsy,62.7161,129.6658,-2.84,54,9,7.01,RU,1683511692
134,watsa,3.0372,29.5355,17.46,91,80,1.41,CD,1683511693
135,fada,9.5667,8.3,22.24,78,100,1.64,NG,1683511432
136,constantia,44.1833,28.65,10.39,73,64,1.49,RO,1683511391
137,urucurituba,-2.6833,-57.6667,23.9,97,100,0.38,BR,1683511694
138,greenville,35.6127,-77.3663,23.02,65,40,3.6,US,1683511530
139,georgetown,5.4112,100.3354,30.96,84,20,1.03,MY,1683511177
140,san antonio oeste,-40.7319,-64.9477,13.48,69,89,8.64,AR,1683511696
141,sikasso,10.9167,-7.0,27.75,59,100,2.32,ML,1683511696
142,alice springs,-23.7,133.8833,13.75,24,34,9.26,AU,1683511380
143,kuanda,56.3161,116.0806,5.17,45,98,3.41,RU,1683511551
144,ryotsu-minato,38.0833,138.4333,10.99,87,100,4.07,JP,1683511697
145,leirvik,59.7798,5.5005,10.48,68,100,3.22,NO,1683511572
146,souillac,-20.5167,57.5167,24.72,80,94,6.14,MU,1683511698
147,nova sintra,14.8667,-24.7167,20.22,80,0,6.7,CV,1683511525
148,afaahiti,-17.75,-149.2833,28.93,79,100,4.77,PF,1683511405
149,huarmey,-10.0681,-78.1522,22.9,84,80,5.13,PE,1683511450
150,greci,45.1833,28.2333,12.36,56,99,1.8,RO,1683511700
151,susuman,62.7833,148.1667,3.67,65,35,2.72,RU,1683511517
152,boguchany,58.3814,97.4531,14.87,51,28,2.51,RU,1683511701
153,severo-yeniseyskiy,60.3725,93.0408,11.82,72,94,3.62,RU,1683511558
154,sos'va,59.1766,61.8558,0.89,61,8,5.92,RU,1683511701
155,waingapu,-9.6567,120.2641,29.22,70,40,8.28,ID,1683511702
156,mount pearl,47.5166,-52.7813,4.19,70,75,8.75,CA,1683511278
157,sarmiento,-45.5882,-69.07,10.01,65,4,2.21,AR,1683511188
158,st. john's,47.5649,-52.7093,4.66,70,75,8.75,CA,1683511317
159,mount gambier,-37.8333,140.7667,13.71,69,92,3.49,AU,1683511240
160,tiksi,71.6872,128.8694,-11.67,80,71,6.04,RU,1683511412
161,labytnangi,66.6572,66.4183,-5.71,94,100,6.55,RU,1683511704
162,brisas de zicatela,15.8369,-97.0419,29.29,70,0,1.54,MX,1683511549
163,mejit,10.2753,170.8646,27.57,82,62,7.85,MH,1683511705
164,olean,42.0776,-78.4297,17.38,99,97,1.35,US,1683511444
165,mana,5.6592,-53.7767,24.63,94,100,2.98,GF,1683511546
166,la passe,45.5549,-0.8967,14.43,92,51,2.63,FR,1683511511
167,alofi,-19.0595,-169.9187,27.94,74,84,2.57,NU,1683511489
168,dalbandin,28.8947,64.4101,23.49,12,0,0.92,PK,1683511425
169,port alfred,-33.5906,26.891,18.54,71,100,4.41,ZA,1683511475
170,tarrafal de sao nicolau,16.5667,-24.3667,22.28,81,6,7.32,CV,1683511708
171,hadibu,12.65,54.0333,27.65,58,12,1.56,YE,1683511708
172,iguape,-24.7081,-47.5553,21.57,93,64,1.78,BR,1683511708
173,seven pagodas,12.6264,80.1722,28.03,76,100,3.87,IN,1683511709
174,kangding,30.0513,101.9603,10.57,86,89,1.62,CN,1683511709
175,egilsstadir,65.2653,-14.3948,8.95,81,75,3.6,IS,1683511555
176,dakhla,23.6848,-15.958,18.26,84,3,11.02,EH,1683511711
177,geraldton,-28.7667,114.6,23.23,38,75,11.83,AU,1683511614
178,kagizman,40.1567,43.1342,8.15,84,34,2.26,TR,1683511712
179,jamestown,42.097,-79.2353,16.4,87,100,3.09,US,1683511514
180,port lincoln,-34.7333,135.8667,14.35,63,100,3.46,AU,1683511386
181,ilulissat,69.2167,-51.1,0.01,86,100,0.0,GL,1683511394
182,naracoorte,-36.9579,140.7383,14.79,54,57,6.61,AU,1683511714
183,noshiro,40.2039,140.0242,6.95,74,100,4.24,JP,1683511714
184,flin flon,54.7682,-101.865,13.01,52,33,1.77,CA,1683511715
185,porecatu,-22.7558,-51.3792,20.99,88,58,0.55,BR,1683511681
186,talnakh,69.4865,88.3972,-10.34,79,86,2.48,RU,1683511401
187,klyuchi,52.2667,79.1667,20.51,29,0,1.07,RU,1683511435
188,karratha,-20.7377,116.8463,28.56,30,24,11.09,AU,1683511506
189,great falls,47.5002,-111.3008,14.26,63,100,5.66,US,1683511717
190,nambucca,-30.6333,152.9833,20.46,31,0,5.38,AU,1683511717
191,alto barinas,8.5931,-70.2261,28.72,56,100,1.67,VE,1683511718
192,olbia,40.9214,9.4856,15.03,100,20,1.54,IT,1683511718
193,berber,18.0216,33.983,27.45,15,1,6.53,SD,1683511718
194,talara,-4.5772,-81.2719,26.42,78,0,5.14,PE,1683511719
195,ta`u,-14.2336,-169.5144,27.79,74,47,4.99,AS,1683511507
196,grand falls-windsor,48.9332,-55.6649,6.95,74,100,1.34,CA,1683511720
197,novyy urengoy,66.0833,76.6333,1.58,100,100,10.76,RU,1683511693
198,rosarito,32.3333,-117.0333,18.13,72,0,4.88,MX,1683511720
199,hobyo,5.3505,48.5268,27.07,79,43,10.3,SO,1683511567
200,lashio,22.9333,97.75,31.46,29,0,0.61,MM,1683511721
201,wanning,18.8003,110.3967,30.14,70,100,1.93,CN,1683511721
202,wad az zaki,14.4619,32.2065,30.46,11,99,7.0,SD,1683511722
203,arauca,7.0847,-70.7591,27.53,60,100,2.09,CO,1683511722
204,puerto baquerizo moreno,-0.9,-89.6,26.3,87,94,4.63,EC,1683511368
205,usinsk,65.9939,57.5281,-7.81,91,100,9.21,RU,1683511723
206,gebeit,21.0667,36.3167,22.53,35,0,2.21,SD,1683511723
207,argo,37.6333,22.7333,15.44,66,2,1.39,GR,1683511724
208,fort mcmurray,56.7268,-111.381,16.77,36,100,3.6,CA,1683511147
209,selfoss,63.9331,-20.9971,9.91,89,99,3.12,IS,1683511471
210,quellon,-43.1167,-73.6167,1.14,100,39,0.0,CL,1683511523
211,uruzgan,32.8333,66.0,11.85,40,0,2.18,AF,1683511725
212,cooper's town,26.8667,-77.5167,22.45,61,0,8.46,BS,1683511726
213,island harbour,50.724,-1.2758,11.37,95,100,0.89,GB,1683511598
214,mahajanga,-15.7167,46.3167,23.44,76,0,3.96,MG,1683511727
215,avarua,-21.2078,-159.775,25.03,100,75,4.12,CK,1683511727
216,qaqortoq,60.7167,-46.0333,1.34,81,100,0.98,GL,1683511727
217,nogliki,51.8333,143.1667,6.7,63,98,4.22,RU,1683511728
218,nanao,37.05,136.9667,14.07,89,100,5.41,JP,1683511728
219,tirat karmel,32.7617,34.9719,17.6,84,14,2.26,IL,1683511729
220,magadan,59.5667,150.8,4.74,83,31,3.18,RU,1683511563
221,shalqar,47.8333,59.6,14.92,54,44,2.95,KZ,1683511729
222,harper,4.375,-7.7169,26.62,82,100,1.3,LR,1683511525
223,elmali,36.7358,29.9177,8.69,86,0,1.93,TR,1683511730
224,polyarnyy,69.1989,33.4478,1.19,88,100,6.58,RU,1683511529
225,haiku-pauwela,20.9219,-156.3051,27.01,62,40,12.86,US,1683511731
226,amahai,-3.3333,128.9167,30.65,67,61,1.32,ID,1683511732
227,crane,31.3974,-102.3501,28.68,11,11,2.73,US,1683511402
228,happy valley-goose bay,53.3168,-60.3315,-0.76,91,54,1.25,CA,1683511601
229,kriel,-26.2739,29.2253,11.01,88,99,4.13,ZA,1683511733
230,beau vallon,-20.4189,57.6953,25.12,75,58,7.24,MU,1683511734
231,taoudenni,22.6783,-3.9836,34.24,9,100,3.38,ML,1683511734
232,isangel,-19.55,169.2667,27.73,65,1,3.46,VU,1683511548
233,whitehorse,60.7161,-135.0538,14.43,24,20,6.17,CA,1683511168
234,goz beida,13.95,20.55,29.55,36,100,4.28,TD,1683511736
235,isla mujeres,21.2311,-86.731,27.87,80,97,4.36,MX,1683511206
236,punta arenas,-53.15,-70.9167,8.06,76,0,7.72,CL,1683511184
237,prado,-17.3411,-39.2208,22.79,90,4,2.84,BR,1683511737
238,general acha,-37.377,-64.6043,11.85,75,6,5.86,AR,1683511738
239,hasaki,35.7333,140.8333,12.9,88,100,14.52,JP,1683511451
240,urzhar,47.093,81.6294,14.56,45,35,0.36,KZ,1683511738
241,kununurra,-15.7667,128.7333,25.99,29,9,6.69,AU,1683511564
242,tucuma,-0.1833,-50.05,24.92,92,63,2.44,BR,1683511740
243,pisco,-13.7,-76.2167,20.03,88,0,6.69,PE,1683511425
244,inegol,40.0781,29.5133,7.6,95,25,0.46,TR,1683511740
245,sokoni,-6.4333,39.55,26.5,78,29,6.76,TZ,1683511741
246,cabo san lucas,22.8909,-109.9124,28.12,57,93,4.88,MX,1683511374
247,kerema,-7.9631,145.7785,29.6,73,23,2.95,PG,1683511742
248,xilin hot,43.9667,116.0333,15.22,29,33,3.8,CN,1683511742
249,banda aceh,5.5577,95.3222,26.26,87,99,5.47,ID,1683511543
250,macapa,0.0389,-51.0664,25.99,100,40,1.54,BR,1683511465
251,sayat,38.7839,63.8803,13.93,38,0,3.09,TM,1683511530
252,mananjary,-21.2167,48.3333,20.76,92,16,2.3,MG,1683511744
253,kibuye,-2.0597,29.3482,18.03,83,19,0.87,RW,1683511744
254,castillos,-34.1667,-53.8333,13.07,91,89,2.48,UY,1683511424
255,gornopravdinsk,60.05,69.9,5.61,55,12,6.69,RU,1683511745
256,dudinka,69.4058,86.1778,-12.2,83,100,5.69,RU,1683511499
257,deori khas,23.4,79.0167,31.35,33,31,2.13,IN,1683511746
258,kapa'a,22.0752,-159.319,27.99,68,82,3.13,US,1683511423
259,tangalle,6.024,80.7911,26.09,81,100,4.58,LK,1683511435
260,sinabang,2.4803,96.3801,26.81,84,100,5.68,ID,1683511747
261,la'ie,21.6477,-157.9253,27.98,68,100,3.58,US,1683511747
262,nuuk,64.1835,-51.7216,1.6,86,20,3.6,GL,1683511524
263,mil'kovo,55.6078,37.7956,0.75,68,9,1.97,RU,1683511749
264,kotabumi,-4.8333,104.9,28.13,72,92,2.02,ID,1683511749
265,acarau,-2.8856,-40.12,25.51,82,58,3.6,BR,1683511605
266,syston,52.6833,-1.0667,11.96,86,100,1.79,GB,1683511750
267,qina,26.1642,32.7267,21.24,34,0,3.49,EG,1683511750
268,twon-brass,4.3151,6.2418,27.96,76,100,3.82,NG,1683511751
269,byerazino,53.8391,28.9879,-0.28,71,2,2.48,BY,1683511751
270,chibougamau,49.9168,-74.3659,7.79,39,0,3.09,CA,1683511561
271,horta,38.5333,-28.6333,17.23,98,100,3.58,PT,1683511752
272,kolonia town,6.964,158.206,29.06,79,100,2.57,FM,1683511573
273,juan de herrera,18.874,-71.2383,21.32,77,17,0.94,DO,1683511753
274,tshikapa,-6.4167,20.8,21.78,87,11,0.98,CD,1683511754
275,ishqoshim,36.7248,71.6133,1.21,67,38,0.67,TJ,1683511754
276,greymouth,-42.4667,171.2,17.7,86,89,1.5,NZ,1683511754
277,belel,7.05,14.4333,17.2,73,100,0.42,CM,1683511755
278,whangarei,-35.7317,174.3239,19.55,87,90,4.66,NZ,1683511522
279,nikolayevsk-on-amure,53.1406,140.73,14.93,39,0,1.55,RU,1683511756
280,ujae,8.9322,165.7642,27.98,81,99,6.41,MH,1683511578
281,lazaro cardenas,17.9583,-102.2,27.17,73,2,2.49,MX,1683511441
282,manaquiri,-3.3167,-60.35,27.25,97,100,0.91,BR,1683511758
283,qarazhal,48.0078,70.7903,18.54,24,0,1.61,KZ,1683511560
284,champerico,14.3,-91.9167,29.96,72,1,2.34,GT,1683511759
285,thunder bay,48.4001,-89.3168,8.99,81,100,2.06,CA,1683511031
286,puerto princesa,9.7392,118.7353,30.99,66,20,2.06,PH,1683511586
287,san pedro del parana,-26.8333,-56.2,16.4,99,55,1.59,PY,1683511761
288,christchurch,-43.5333,172.6333,24.62,62,52,4.63,NZ,1683510905
289,walla walla,46.0646,-118.343,15.28,61,75,4.63,US,1683511558
290,new plymouth,-39.0667,174.0833,17.4,87,100,4.44,NZ,1683511617
291,caucete,-31.6518,-68.2811,18.4,36,33,2.99,AR,1683511763
292,chengde,40.9725,117.9361,21.28,17,95,2.18,CN,1683511764
293,at taj,24.2049,23.2857,18.71,34,0,3.94,LY,1683511764
294,kavaratti,10.5669,72.642,28.65,71,48,4.57,IN,1683511416
295,san patricio,28.017,-97.5169,26.02,83,100,6.67,US,1683511455
296,kousa,25.9141,32.7636,21.5,33,0,2.83,EG,1683511995
297,sitka,57.0531,-135.33,8.94,61,75,4.12,US,1683511996
298,yunyang,33.4474,112.7142,20.5,40,64,3.98,CN,1683511996
299,carutapera,-1.195,-46.02,24.93,93,74,2.96,BR,1683511997
300,dalandzadgad,43.5708,104.425,13.59,18,100,4.8,MN,1683511997
301,kotel,42.8833,26.45,3.75,77,69,1.26,BG,1683511998
302,nova olimpia,-14.7972,-57.2881,23.71,87,5,0.55,BR,1683511998
303,bayan,46.0833,127.4,17.6,35,96,10.45,CN,1683511999
304,lamu,-2.2717,40.902,26.12,84,15,5.54,KE,1683511999
305,kapuskasing,49.4169,-82.4331,8.11,71,5,2.83,CA,1683511999
306,taytay,14.5678,121.1394,33.35,68,20,3.09,PH,1683512000
307,kalmunai,7.4167,81.8167,26.7,76,100,1.76,LK,1683512001
308,kruisfontein,-34.0033,24.7314,15.49,92,11,1.92,ZA,1683512001
309,tadine,-21.55,167.8833,26.64,63,56,2.53,NC,1683512002
310,kristiansund,63.1115,7.732,7.36,70,20,2.06,NO,1683511764
311,san rafael,-34.6177,-68.3301,12.23,42,0,2.45,AR,1683511913
312,bohnsdorf,52.3943,13.5734,8.36,86,0,3.09,DE,1683512003
313,kone,-21.0595,164.8658,26.34,65,100,3.01,NC,1683512004
314,thames,-37.1333,175.5333,20.09,71,76,4.02,NZ,1683511861
315,port-cartier,50.0334,-66.8654,7.08,69,26,3.03,CA,1683512005
316,khandyga,62.6667,135.6,1.89,66,100,3.57,RU,1683512005
317,touros,-5.1989,-35.4608,26.0,82,10,5.16,BR,1683511825
318,port-vila,-17.7338,168.3219,28.78,74,75,3.6,VU,1683512006
319,port shepstone,-30.7414,30.455,18.73,76,100,3.27,ZA,1683511886
320,jayapura,-2.5333,140.7,32.66,71,38,1.65,ID,1683512007
321,shakhtinsk,49.71,72.5872,18.2,24,0,1.31,KZ,1683512007
322,energetik,51.7445,58.7934,7.9,47,100,6.57,RU,1683512008
323,wenling,28.3669,121.36,18.28,79,98,5.82,CN,1683512008
324,ola,59.5833,151.2833,6.19,85,56,2.92,RU,1683512009
325,kargasok,59.0556,80.8572,18.85,33,71,7.3,RU,1683512009
326,moyynkum,44.2914,72.9469,16.47,27,68,1.85,KZ,1683512010
327,muynoq,43.7683,59.0214,18.26,40,8,3.57,UZ,1683512010
328,rio grande,-32.035,-52.0986,16.93,93,100,6.01,BR,1683512010
329,antalaha,-14.9003,50.2788,21.44,88,3,3.28,MG,1683512011
330,mount isa,-20.7333,139.5,19.87,24,4,6.17,AU,1683512011
331,tajerouine,35.8917,8.5528,15.51,88,100,2.07,TN,1683512012
332,kaa-khem,51.6833,94.7333,15.48,37,78,0.72,RU,1683512012
333,luza,60.6308,47.2512,-2.21,89,73,2.15,RU,1683512013
334,sao gabriel da cachoeira,-0.1303,-67.0892,23.79,97,69,0.66,BR,1683511756
335,san pedro pochutla,15.7333,-96.4667,29.84,68,4,3.45,MX,1683512014
336,watampone,-4.5386,120.3279,26.67,88,98,2.81,ID,1683512014
337,ust-nera,64.5667,143.2,2.89,89,100,3.74,RU,1683512015
338,viedma,-40.8135,-62.9967,13.83,76,100,5.86,AR,1683512017
339,chinsali,-10.5414,32.0816,12.66,91,0,2.24,ZM,1683512019
340,mukalla,14.5425,49.1242,27.68,69,14,1.94,YE,1683511976
341,colonia,50.9333,6.95,15.54,88,20,1.03,DE,1683511956
342,wewak,-3.5534,143.6268,29.31,77,77,2.62,PG,1683512021
343,ormara,25.2088,64.6357,28.43,66,0,2.94,PK,1683512022
344,mar del plata,-38.0023,-57.5575,14.49,96,100,2.06,AR,1683512022
345,suva,-18.1416,178.4415,29.71,70,40,2.57,FJ,1683512023
346,barcelos,41.5388,-8.6151,15.47,75,100,1.09,PT,1683512023
347,fuli,46.7217,131.1394,20.13,21,41,7.9,CN,1683512024
348,port pirie,-33.1833,138.0167,15.12,43,38,4.1,AU,1683512024
349,lanzhou,36.0564,103.7922,12.79,60,100,2.48,CN,1683512024
350,zhangye,38.9342,100.4517,7.15,84,100,6.97,CN,1683512025
351,salalah,17.0151,54.0924,26.05,65,0,1.03,OM,1683512025
352,waiuku,-37.25,174.75,21.81,81,100,4.92,NZ,1683512026
353,sandnessjoen,66.0217,12.6316,4.8,87,11,0.45,NO,1683512026
354,ulladulla,-35.35,150.4667,14.87,55,100,10.2,AU,1683512027
355,hithadhoo,-0.6,73.0833,28.52,73,84,6.51,MV,1683512027
356,bogale,16.2833,95.4,33.05,52,33,3.39,MM,1683512028
357,coracora,-15.0333,-73.7833,9.65,78,10,0.92,PE,1683512028
358,mtwara,-10.2667,40.1833,22.14,90,7,4.36,TZ,1683512028
359,mangaratiba,-22.9597,-44.0406,22.34,87,7,1.61,BR,1683511815
360,djougou,9.7085,1.666,24.02,82,100,2.31,BJ,1683512029
361,vilyuchinsk,52.9306,158.4028,9.15,73,40,2.27,RU,1683512030
362,quakertown,40.4418,-75.3416,18.8,85,20,1.54,US,1683511825
363,ustka,54.5805,16.8619,5.31,78,5,2.98,PL,1683512030
364,ketchikan,55.3422,-131.6461,10.99,75,97,1.81,US,1683512031
365,pokachi,61.7198,75.3683,8.78,73,81,9.76,RU,1683511821
366,sao felix do xingu,-6.6447,-51.995,22.22,98,14,0.84,BR,1683511754
367,arvayheer,46.2639,102.775,8.74,24,100,4.08,MN,1683512032
368,alnwick,55.4132,-1.7056,11.05,100,100,1.54,GB,1683512033
369,zouerate,22.7187,-12.4521,22.85,38,0,6.1,MR,1683512033
370,minas de marcona,-15.2119,-75.1103,16.49,82,81,4.5,PE,1683512034
371,omutinskiy,56.4745,67.6709,6.98,38,48,6.8,RU,1683512034
372,vernon,50.2581,-119.2691,15.72,75,100,0.45,CA,1683512034
373,howard springs,-12.497,131.047,30.46,46,49,6.36,AU,1683512035
374,petrosino,37.7077,12.4999,19.15,70,100,3.54,IT,1683512035
375,san julian,21.0167,-102.1667,22.31,36,91,4.83,MX,1683512036
376,borba,-4.3878,-59.5939,23.73,98,96,0.5,BR,1683512036
377,la romana,18.4273,-68.9728,24.2,88,20,0.0,DO,1683511815
378,plastun,44.7561,136.2939,13.1,44,22,3.17,RU,1683512037
379,homer,59.6425,-151.5483,5.98,84,100,4.47,US,1683512037
380,fuglafjordur,62.244,-6.814,8.26,98,100,8.19,FO,1683512038
381,seydi,39.4816,62.9137,18.61,36,0,3.69,TM,1683512039
382,ponta delgada,37.7333,-25.6667,18.4,94,75,5.66,PT,1683512040
383,pathein,16.7833,94.7333,33.27,52,14,4.15,MM,1683512040
384,santana,-0.0583,-51.1817,26.1,100,40,1.54,BR,1683512041
385,malone,44.8487,-74.2949,14.58,90,100,3.38,US,1683511932
386,juegang,32.3174,121.1855,16.54,55,100,4.28,CN,1683512042
387,san agustin de valle fertil,-30.6335,-67.4682,15.24,51,65,0.94,AR,1683512042
388,fort st. john,56.2499,-120.8529,12.94,50,75,6.69,CA,1683512011
389,chernyshevskiy,63.0128,112.4714,-2.52,75,15,0.86,RU,1683511935
390,mogocha,53.7333,119.7667,7.38,25,4,4.54,RU,1683512043
391,tikhvin,59.6451,33.5294,-0.99,75,55,1.99,RU,1683512044
392,oriximina,-1.7656,-55.8661,24.0,94,94,1.44,BR,1683512044
393,tolanaro,-25.0319,46.9987,20.16,89,0,3.59,MG,1683512045
394,harstad,68.799,16.5293,5.34,100,100,6.71,NO,1683512045
395,kota kinabalu,5.9749,116.0724,27.99,78,20,4.63,MY,1683512046
396,san clemente del tuyu,-36.3569,-56.7235,15.54,86,51,8.02,AR,1683512046
397,port macquarie,-31.4333,152.9167,19.38,36,6,6.73,AU,1683511929
398,koppies,-27.2418,27.5742,11.27,85,100,3.55,ZA,1683512047
399,makubetsu,45.3714,141.8211,10.21,47,100,4.62,JP,1683512047
400,bandarbeyla,9.4942,50.8122,27.54,82,100,2.61,SO,1683512048
401,bratsk,56.1325,101.6142,13.27,49,8,1.81,RU,1683512048
402,ipora,-16.4419,-51.1178,20.4,64,27,1.54,BR,1683512049
403,cootamundra,-34.65,148.0333,10.53,52,6,7.78,AU,1683512049
404,dunedin,-45.8742,170.5036,17.82,88,83,1.34,NZ,1683512050
405,les anglais,18.3054,-74.2197,25.18,79,84,2.58,HT,1683512050
406,rikaze,29.25,88.8833,8.42,35,3,1.29,CN,1683512051
407,tabou,4.423,-7.3528,26.51,82,100,1.22,CI,1683512051
408,holland,42.7875,-86.1089,18.03,84,46,2.22,US,1683511988
409,george town,5.4112,100.3354,30.96,79,20,1.03,MY,1683511985
410,luderitz,-26.6481,15.1594,14.41,53,2,4.9,,1683512052
411,khadan khak,30.7477,67.7085,12.4,28,0,4.75,PK,1683512053
412,kingston,17.997,-76.7936,24.58,95,68,0.45,JM,1683512053
413,daru,-9.0763,143.2092,28.55,81,32,6.01,PG,1683512054
414,el nido,11.1858,119.3956,29.5,71,97,1.8,PH,1683512054
415,rundu,-17.9333,19.7667,15.9,56,8,2.21,,1683512055
416,san carlos de bariloche,-41.1456,-71.3082,6.91,55,0,2.06,AR,1683511827
417,inhambane,-23.865,35.3833,21.03,82,2,1.89,MZ,1683512056
418,vila franca do campo,37.7167,-25.4333,18.23,94,99,5.41,PT,1683512056
419,tuzi,42.3656,19.3314,13.88,88,0,1.03,ME,1683512057
420,nyurba,63.2842,118.3319,-2.76,63,82,1.99,RU,1683512058
421,pavlovsk,50.4578,40.1081,3.74,62,100,5.41,RU,1683512058
422,berbera,10.4396,45.0143,29.7,76,94,2.33,SO,1683512059
423,la ronge,55.1001,-105.2842,10.14,43,100,2.57,CA,1683512059
424,la punta,-33.1837,-66.3127,12.96,47,37,3.31,AR,1683512060
425,kerikeri,-35.2268,173.9474,19.95,92,100,2.24,NZ,1683512060
426,den burg,53.0542,4.7972,12.77,99,100,1.03,NL,1683512061
427,achinsk,56.2694,90.4993,17.56,42,42,3.43,RU,1683512061
428,charters towers,-20.1,146.2667,24.38,37,0,6.46,AU,1683512063
429,chapaev,50.2,51.1667,8.62,41,100,6.76,KZ,1683512063
430,lompoc,34.6391,-120.4579,18.08,80,20,8.23,US,1683512064
431,queenstown,-31.8976,26.8753,11.71,89,99,0.5,ZA,1683511986
432,buta,2.7858,24.73,20.78,99,97,0.87,CD,1683512065
433,sao vicente,-23.9631,-46.3919,25.15,26,73,1.3,BR,1683512065
434,portland,45.5234,-122.6762,17.12,50,75,2.06,US,1683511799
435,mazagao,-0.115,-51.2894,26.03,92,90,1.47,BR,1683512066
436,pampa,35.5362,-100.9599,27.53,26,0,5.14,US,1683512067
437,isnos,1.9356,-76.2406,14.63,95,30,1.58,CO,1683512067
438,fort wellington,6.4,-57.6,25.56,90,100,6.56,GY,1683512067
439,dalnegorsk,44.5604,135.5701,17.21,25,71,0.27,RU,1683511934
440,lautoka,-17.6167,177.4667,28.92,79,40,6.17,FJ,1683512069
441,rumphi,-11.0186,33.8575,13.9,94,0,1.44,MW,1683512069
442,cuite,-6.4836,-36.1536,19.27,97,38,4.23,BR,1683512069
443,lerwick,60.1545,-1.1494,8.0,97,100,9.99,GB,1683512070
444,laguna,38.421,-121.4238,19.95,49,0,4.63,US,1683512070
445,tobelo,1.7284,128.0095,29.29,74,37,1.64,ID,1683512071
446,machico,32.7,-16.7667,21.51,69,20,7.72,PT,1683512071
447,moengo,5.6167,-54.4,23.06,99,100,0.94,SR,1683512072
448,gaoping,30.7758,106.1029,16.35,79,100,3.27,CN,1683512072
449,ko pha ngan,9.7578,100.0291,26.91,75,100,3.42,TH,1683512072
450,freeport,40.6576,-73.5832,20.59,72,100,4.12,US,1683511890
451,tommot,58.9564,126.2925,0.73,76,100,3.48,RU,1683512073
452,idabel,33.8957,-94.8263,23.97,94,100,3.09,US,1683512074
453,vereeniging,-26.6731,27.9261,11.51,85,100,1.3,ZA,1683512074
454,baxter,46.3433,-94.2867,16.04,63,75,2.57,US,1683512074
455,mildura,-34.2,142.15,14.48,52,6,8.39,AU,1683512075
456,huntsville,34.7304,-86.5861,25.14,72,100,0.0,US,1683512048
457,cockburn town,21.4612,-71.1419,26.1,76,52,8.91,TC,1683512076
458,nemuro,43.3236,145.575,1.33,98,100,6.14,JP,1683512076
459,san luis de la loma,17.2706,-100.8939,28.36,69,23,2.34,MX,1683512076
460,arawa,-6.2132,155.5367,30.44,72,59,1.9,PG,1683512077
461,ciudad bolivar,8.1222,-63.5497,29.87,52,64,6.08,VE,1683512077
462,mata-utu,-13.2816,-176.1745,28.61,75,16,4.79,WF,1683512078
463,gaiman,-43.2897,-65.4929,11.58,64,97,3.33,AR,1683512078
464,keflavik,64.0049,-22.5624,9.95,87,75,5.66,IS,1683512078
465,kingsland,30.8,-81.6898,22.73,78,3,2.26,US,1683511929
466,northam,51.0333,-4.2167,12.36,91,100,5.63,GB,1683512079
467,san juan de miraflores,-12.1629,-76.9635,22.32,83,82,3.36,PE,1683512080
468,umm kaddadah,13.6017,26.6876,26.72,14,95,6.6,SD,1683512080
469,petrolina,-9.3986,-40.5008,26.03,73,0,2.57,BR,1683512081
470,torghay,49.6339,63.4981,17.6,44,28,1.91,KZ,1683512081
471,ulsteinvik,62.3432,5.8487,8.2,66,23,2.68,NO,1683512082
472,papao,-17.75,-149.55,29.82,74,100,3.47,PF,1683512082
473,nantucket,41.2835,-70.0995,17.08,75,0,8.23,US,1683511945
474,esmeraldas,-19.7625,-44.3139,20.48,85,2,2.19,BR,1683512083
475,torbat-e jam,35.244,60.6225,14.28,48,0,1.32,IR,1683512083
476,puerto san jose,13.9256,-90.8244,29.13,75,1,1.83,GT,1683512084
477,hilo,19.7297,-155.09,25.85,73,40,2.06,US,1683512084
478,cabedelo,-6.9811,-34.8339,25.37,85,35,4.65,BR,1683512085
479,tsiombe,-25.3,45.4833,19.55,79,0,1.88,MG,1683512086
480,chebba,35.2372,11.115,19.18,83,100,5.55,TN,1683512086
481,tutoia,-2.7619,-42.2744,26.23,87,14,4.1,BR,1683512087
482,pagar alam,-4.0167,103.2667,26.45,65,99,1.17,ID,1683512087
483,minbu,20.1833,94.8833,34.35,41,52,2.69,MM,1683512088
484,arkhangel'sk,64.5401,40.5433,-1.19,80,13,2.02,RU,1683512004
485,autazes,-3.5797,-59.1306,23.9,98,97,0.41,BR,1683512088
486,madingou,-4.1536,13.55,23.43,96,100,0.76,CG,1683512089
487,vuktyl,63.8567,57.3094,-6.44,93,100,6.0,RU,1683512090
488,sukuta,13.4103,-16.7082,23.01,88,0,0.0,GM,1683512090
489,amungan,15.3652,119.9582,31.34,64,27,3.64,PH,1683512090
490,la sarre,48.8002,-79.1996,6.36,48,2,4.81,CA,1683512091
491,karaidel',55.8337,56.9069,0.49,73,9,2.97,RU,1683512091
492,fortaleza,-3.7227,-38.5247,27.07,83,20,1.54,BR,1683512092
493,lindi,-10.0,39.7167,20.7,96,5,2.18,TZ,1683512092
494,ambon,-3.6954,128.1814,31.92,95,20,2.06,ID,1683512092
495,miura,35.14,139.6192,15.61,86,100,11.65,JP,1683512093
496,port saint john's,-31.6229,29.5448,18.22,92,100,1.99,ZA,1683512093
497,forster,-32.1667,152.5167,17.43,43,8,4.47,AU,1683512094
498,bam,29.106,58.357,24.23,11,0,1.68,IR,1683512094
499,sao tome,0.3365,6.7273,27.53,78,100,0.63,ST,1683512095
500,callao,-12.0667,-77.15,23.18,78,40,6.69,PE,1683512095
501,poronaysk,49.2167,143.1167,8.88,51,2,3.13,RU,1683512095
502,ust-tsilma,65.441,52.1498,-7.04,95,97,3.44,RU,1683512096
503,tuy hoa,13.0833,109.3,31.96,58,100,1.62,VN,1683512096
504,sosnogorsk,63.6023,53.8817,-5.63,86,100,5.27,RU,1683512097
505,dolores,-36.3132,-57.6792,14.41,87,99,4.23,AR,1683512097
506,zaida,34.0603,72.4678,18.94,65,16,2.42,PK,1683512097
507,tuxpan,19.55,-103.4,25.3,55,71,1.78,MX,1683512098
508,usogorsk,63.4106,48.6872,-3.43,74,16,3.5,RU,1683512098
509,piti village,13.4626,144.6933,31.49,72,75,6.69,GU,1683512099
510,pielavesi,63.2333,26.75,0.45,78,67,2.48,FI,1683512099
511,paulden,34.8856,-112.4682,20.31,25,11,2.24,US,1683512099
512,bol'sherech'ye,56.0925,74.6272,17.73,40,96,5.61,RU,1683512100
513,tingo maria,-9.2895,-76.0088,20.63,99,46,1.02,PE,1683512100
514,soroa,22.7939,-83.0078,22.38,84,0,3.22,CU,1683512101
515,moussoro,13.6408,16.4901,28.92,13,94,4.21,TD,1683512101
516,ouallam,14.3188,2.0866,31.7,17,21,3.19,NE,1683512102
517,san luis,-33.295,-66.3356,13.5,45,46,3.38,AR,1683512082
518,sierra grande,-41.606,-65.3557,10.5,76,37,5.36,AR,1683512103
519,nelson bay,-32.7167,152.15,17.22,48,46,7.6,AU,1683512103
520,walvis bay,-22.9575,14.5053,12.83,76,0,4.35,,1683512104
521,ponnani,10.767,75.9252,27.62,75,99,1.71,IN,1683512104
522,altai,46.3722,96.2583,2.62,27,0,6.79,MN,1683512105
523,deniliquin,-35.5333,144.9667,14.38,44,8,7.2,AU,1683512106
524,barabai,-2.5833,115.3833,29.6,70,100,0.54,ID,1683511812
525,shizukuishi,39.6833,140.9833,5.09,90,100,4.98,JP,1683512107
526,mineros,-17.1167,-63.2333,21.57,88,100,1.34,BO,1683512107
527,gebre guracha,9.8,38.4,12.17,88,98,0.91,ET,1683512108
528,marsabit,2.3284,37.9899,17.25,91,72,5.61,KE,1683512109
529,onguday,50.75,86.15,11.85,50,0,0.37,RU,1683512109
530,freetown,8.484,-13.2299,26.84,94,75,1.54,SL,1683512110
531,ardakan,32.31,54.0175,21.56,15,0,1.26,IR,1683512110
532,nagqu,31.5,92.0,4.33,25,50,4.76,CN,1683512111
533,malini,47.4667,26.0833,6.9,98,100,1.54,RO,1683512111
534,sosnovka,56.255,51.2842,0.2,76,13,1.76,RU,1683512112
535,namsos,64.4662,11.4957,4.03,75,8,6.17,NO,1683512113
536,hell-ville,-13.4,48.2667,25.62,75,3,3.19,MG,1683512113
537,cole harbour,44.6724,-63.4751,7.88,86,68,1.54,CA,1683512114
538,silifke,36.3778,33.9344,17.16,75,16,1.46,TR,1683512114
539,kimbe,-5.5502,150.1429,31.93,63,97,2.28,PG,1683512115
540,hugo,45.16,-92.9933,20.97,66,0,0.45,US,1683512115
